header: 
  seq: 75
  stamp: 
    secs: 1582658704
    nsecs: 266373916
  frame_id: ''
voltage: 12.1499996185
current: 1.0
charge: nan
capacity: nan
design_capacity: nan
percentage: 1.0
power_supply_status: 2
power_supply_health: 0
power_supply_technology: 3
present: True
cell_voltage: [4.050000190734863, 4.050000190734863, 4.050000190734863]
location: "id0"
serial_number: ''
---
header: 
  seq: 76
  stamp: 
    secs: 1582658704
    nsecs: 732281547
  frame_id: ''
voltage: 12.1499996185
current: 1.0
charge: nan
capacity: nan
design_capacity: nan
percentage: 1.0
power_supply_status: 2
power_supply_health: 0
power_supply_technology: 3
present: True
cell_voltage: [4.050000190734863, 4.050000190734863, 4.050000190734863]
location: "id0"
serial_number: ''
---
header: 
  seq: 77
  stamp: 
    secs: 1582658705
    nsecs: 169733686
  frame_id: ''
voltage: 12.1499996185
current: 1.0
charge: nan
capacity: nan
design_capacity: nan
percentage: 1.0
power_supply_status: 2
power_supply_health: 0
power_supply_technology: 3
present: True
cell_voltage: [4.050000190734863, 4.050000190734863, 4.050000190734863]
location: "id0"
serial_number: ''
---
header: 
  seq: 78
  stamp: 
    secs: 1582658705
    nsecs: 630466412
  frame_id: ''
voltage: 12.1499996185
current: 1.0
charge: nan
capacity: nan
design_capacity: nan
percentage: 1.0
power_supply_status: 2
power_supply_health: 0
power_supply_technology: 3
present: True
cell_voltage: [4.050000190734863, 4.050000190734863, 4.050000190734863]
location: "id0"
serial_number: ''
---
header: 
  seq: 79
  stamp: 
    secs: 1582658705
    nsecs: 862610248
  frame_id: ''
voltage: 12.1499996185
current: 1.0
charge: nan
capacity: nan
design_capacity: nan
percentage: 1.0
power_supply_status: 2
power_supply_health: 0
power_supply_technology: 3
present: True
cell_voltage: [4.050000190734863, 4.050000190734863, 4.050000190734863]
location: "id0"
serial_number: ''
---
header: 
  seq: 80
  stamp: 
    secs: 1582658706
    nsecs: 137271997
  frame_id: ''
voltage: 12.1499996185
current: 1.0
charge: nan
capacity: nan
design_capacity: nan
percentage: 1.0
power_supply_status: 2
power_supply_health: 0
power_supply_technology: 3
present: True
cell_voltage: [4.050000190734863, 4.050000190734863, 4.050000190734863]
location: "id0"
serial_number: ''
---
header: 
  seq: 81
  stamp: 
    secs: 1582658706
    nsecs: 480378031
  frame_id: ''
voltage: 12.1499996185
current: 1.0
charge: nan
capacity: nan
design_capacity: nan
percentage: 1.0
power_supply_status: 2
power_supply_health: 0
power_supply_technology: 3
present: True
cell_voltage: [4.050000190734863, 4.050000190734863, 4.050000190734863]
location: "id0"
serial_number: ''
---
header: 
  seq: 82
  stamp: 
    secs: 1582658706
    nsecs: 975974023
  frame_id: ''
voltage: 12.1499996185
current: 1.0
charge: nan
capacity: nan
design_capacity: nan
percentage: 1.0
power_supply_status: 2
power_supply_health: 0
power_supply_technology: 3
present: True
cell_voltage: [4.050000190734863, 4.050000190734863, 4.050000190734863]
location: "id0"
serial_number: ''
---
header: 
  seq: 83
  stamp: 
    secs: 1582658707
    nsecs: 454361980
  frame_id: ''
voltage: 12.1499996185
current: 1.0
charge: nan
capacity: nan
design_capacity: nan
percentage: 1.0
power_supply_status: 2
power_supply_health: 0
power_supply_technology: 3
present: True
cell_voltage: [4.050000190734863, 4.050000190734863, 4.050000190734863]
location: "id0"
serial_number: ''
---
header: 
  seq: 84
  stamp: 
    secs: 1582658707
    nsecs: 916539917
  frame_id: ''
voltage: 12.1499996185
current: 1.0
charge: nan
capacity: nan
design_capacity: nan
percentage: 1.0
power_supply_status: 2
power_supply_health: 0
power_supply_technology: 3
present: True
cell_voltage: [4.050000190734863, 4.050000190734863, 4.050000190734863]
location: "id0"
serial_number: ''
---
header: 
  seq: 85
  stamp: 
    secs: 1582658708
    nsecs: 386858708
  frame_id: ''
voltage: 12.1499996185
current: 1.0
charge: nan
capacity: nan
design_capacity: nan
percentage: 1.0
power_supply_status: 2
power_supply_health: 0
power_supply_technology: 3
present: True
cell_voltage: [4.050000190734863, 4.050000190734863, 4.050000190734863]
location: "id0"
serial_number: ''
---
header: 
  seq: 86
  stamp: 
    secs: 1582658708
    nsecs: 687766056
  frame_id: ''
voltage: 12.1499996185
current: 1.0
charge: nan
capacity: nan
design_capacity: nan
percentage: 1.0
power_supply_status: 2
power_supply_health: 0
power_supply_technology: 3
present: True
cell_voltage: [4.050000190734863, 4.050000190734863, 4.050000190734863]
location: "id0"
serial_number: ''
---
header: 
  seq: 87
  stamp: 
    secs: 1582658709
    nsecs: 201217728
  frame_id: ''
voltage: 12.1499996185
current: 1.0
charge: nan
capacity: nan
design_capacity: nan
percentage: 1.0
power_supply_status: 2
power_supply_health: 0
power_supply_technology: 3
present: True
cell_voltage: [4.050000190734863, 4.050000190734863, 4.050000190734863]
location: "id0"
serial_number: ''
---
header: 
  seq: 88
  stamp: 
    secs: 1582658709
    nsecs: 563904330
  frame_id: ''
voltage: 12.1499996185
current: 1.0
charge: nan
capacity: nan
design_capacity: nan
percentage: 1.0
power_supply_status: 2
power_supply_health: 0
power_supply_technology: 3
present: True
cell_voltage: [4.050000190734863, 4.050000190734863, 4.050000190734863]
location: "id0"
serial_number: ''
---
header: 
  seq: 89
  stamp: 
    secs: 1582658709
    nsecs: 933613294
  frame_id: ''
voltage: 12.1499996185
current: 1.0
charge: nan
capacity: nan
design_capacity: nan
percentage: 1.0
power_supply_status: 2
power_supply_health: 0
power_supply_technology: 3
present: True
cell_voltage: [4.050000190734863, 4.050000190734863, 4.050000190734863]
location: "id0"
serial_number: ''
---
header: 
  seq: 90
  stamp: 
    secs: 1582658710
    nsecs: 490303744
  frame_id: ''
voltage: 12.1499996185
current: 1.0
charge: nan
capacity: nan
design_capacity: nan
percentage: 1.0
power_supply_status: 2
power_supply_health: 0
power_supply_technology: 3
present: True
cell_voltage: [4.050000190734863, 4.050000190734863, 4.050000190734863]
location: "id0"
serial_number: ''
---
header: 
  seq: 91
  stamp: 
    secs: 1582658711
    nsecs:  10906253
  frame_id: ''
voltage: 12.1499996185
current: 1.0
charge: nan
capacity: nan
design_capacity: nan
percentage: 1.0
power_supply_status: 2
power_supply_health: 0
power_supply_technology: 3
present: True
cell_voltage: [4.050000190734863, 4.050000190734863, 4.050000190734863]
location: "id0"
serial_number: ''
---
header: 
  seq: 92
  stamp: 
    secs: 1582658711
    nsecs: 485938319
  frame_id: ''
voltage: 12.1499996185
current: 1.0
charge: nan
capacity: nan
design_capacity: nan
percentage: 1.0
power_supply_status: 2
power_supply_health: 0
power_supply_technology: 3
present: True
cell_voltage: [4.050000190734863, 4.050000190734863, 4.050000190734863]
location: "id0"
serial_number: ''
---
header: 
  seq: 93
  stamp: 
    secs: 1582658712
    nsecs:  88534884
  frame_id: ''
voltage: 12.1499996185
current: 1.0
charge: nan
capacity: nan
design_capacity: nan
percentage: 1.0
power_supply_status: 2
power_supply_health: 0
power_supply_technology: 3
present: True
cell_voltage: [4.050000190734863, 4.050000190734863, 4.050000190734863]
location: "id0"
serial_number: ''
---
header: 
  seq: 94
  stamp: 
    secs: 1582658712
    nsecs: 591354676
  frame_id: ''
voltage: 12.1499996185
current: 1.0
charge: nan
capacity: nan
design_capacity: nan
percentage: 1.0
power_supply_status: 2
power_supply_health: 0
power_supply_technology: 3
present: True
cell_voltage: [4.050000190734863, 4.050000190734863, 4.050000190734863]
location: "id0"
serial_number: ''
---
header: 
  seq: 95
  stamp: 
    secs: 1582658713
    nsecs: 108498289
  frame_id: ''
voltage: 12.1499996185
current: 1.0
charge: nan
capacity: nan
design_capacity: nan
percentage: 1.0
power_supply_status: 2
power_supply_health: 0
power_supply_technology: 3
present: True
cell_voltage: [4.050000190734863, 4.050000190734863, 4.050000190734863]
location: "id0"
serial_number: ''
---
header: 
  seq: 96
  stamp: 
    secs: 1582658713
    nsecs: 656144016
  frame_id: ''
voltage: 12.1499996185
current: 1.0
charge: nan
capacity: nan
design_capacity: nan
percentage: 1.0
power_supply_status: 2
power_supply_health: 0
power_supply_technology: 3
present: True
cell_voltage: [4.050000190734863, 4.050000190734863, 4.050000190734863]
location: "id0"
serial_number: ''
---
header: 
  seq: 97
  stamp: 
    secs: 1582658714
    nsecs: 207508317
  frame_id: ''
voltage: 12.1499996185
current: 1.0
charge: nan
capacity: nan
design_capacity: nan
percentage: 1.0
power_supply_status: 2
power_supply_health: 0
power_supply_technology: 3
present: True
cell_voltage: [4.050000190734863, 4.050000190734863, 4.050000190734863]
location: "id0"
serial_number: ''
---
header: 
  seq: 98
  stamp: 
    secs: 1582658714
    nsecs: 686117458
  frame_id: ''
voltage: 12.1499996185
current: 1.0
charge: nan
capacity: nan
design_capacity: nan
percentage: 1.0
power_supply_status: 2
power_supply_health: 0
power_supply_technology: 3
present: True
cell_voltage: [4.050000190734863, 4.050000190734863, 4.050000190734863]
location: "id0"
serial_number: ''
---
header: 
  seq: 99
  stamp: 
    secs: 1582658715
    nsecs: 114617764
  frame_id: ''
voltage: 12.1499996185
current: 1.0
charge: nan
capacity: nan
design_capacity: nan
percentage: 1.0
power_supply_status: 2
power_supply_health: 0
power_supply_technology: 3
present: True
cell_voltage: [4.050000190734863, 4.050000190734863, 4.050000190734863]
location: "id0"
serial_number: ''
---
header: 
  seq: 100
  stamp: 
    secs: 1582658715
    nsecs: 570728400
  frame_id: ''
voltage: 12.1499996185
current: 1.0
charge: nan
capacity: nan
design_capacity: nan
percentage: 1.0
power_supply_status: 2
power_supply_health: 0
power_supply_technology: 3
present: True
cell_voltage: [4.050000190734863, 4.050000190734863, 4.050000190734863]
location: "id0"
serial_number: ''
---
header: 
  seq: 101
  stamp: 
    secs: 1582658716
    nsecs:  30048590
  frame_id: ''
voltage: 12.1499996185
current: 1.0
charge: nan
capacity: nan
design_capacity: nan
percentage: 1.0
power_supply_status: 2
power_supply_health: 0
power_supply_technology: 3
present: True
cell_voltage: [4.050000190734863, 4.050000190734863, 4.050000190734863]
location: "id0"
serial_number: ''
---
header: 
  seq: 102
  stamp: 
    secs: 1582658716
    nsecs: 253300516
  frame_id: ''
voltage: 12.1499996185
current: 1.0
charge: nan
capacity: nan
design_capacity: nan
percentage: 1.0
power_supply_status: 2
power_supply_health: 0
power_supply_technology: 3
present: True
cell_voltage: [4.050000190734863, 4.050000190734863, 4.050000190734863]
location: "id0"
serial_number: ''
---
header: 
  seq: 103
  stamp: 
    secs: 1582658716
    nsecs: 528962409
  frame_id: ''
voltage: 12.1499996185
current: 1.0
charge: nan
capacity: nan
design_capacity: nan
percentage: 1.0
power_supply_status: 2
power_supply_health: 0
power_supply_technology: 3
present: True
cell_voltage: [4.050000190734863, 4.050000190734863, 4.050000190734863]
location: "id0"
serial_number: ''
---
header: 
  seq: 104
  stamp: 
    secs: 1582658716
    nsecs: 732508909
  frame_id: ''
voltage: 12.1499996185
current: 1.0
charge: nan
capacity: nan
design_capacity: nan
percentage: 1.0
power_supply_status: 2
power_supply_health: 0
power_supply_technology: 3
present: True
cell_voltage: [4.050000190734863, 4.050000190734863, 4.050000190734863]
location: "id0"
serial_number: ''
---
header: 
  seq: 105
  stamp: 
    secs: 1582658717
    nsecs: 228349316
  frame_id: ''
voltage: 12.1499996185
current: 1.0
charge: nan
capacity: nan
design_capacity: nan
percentage: 1.0
power_supply_status: 2
power_supply_health: 0
power_supply_technology: 3
present: True
cell_voltage: [4.050000190734863, 4.050000190734863, 4.050000190734863]
location: "id0"
serial_number: ''
---
header: 
  seq: 106
  stamp: 
    secs: 1582658717
    nsecs: 760359789
  frame_id: ''
voltage: 12.1499996185
current: 1.0
charge: nan
capacity: nan
design_capacity: nan
percentage: 1.0
power_supply_status: 2
power_supply_health: 0
power_supply_technology: 3
present: True
cell_voltage: [4.050000190734863, 4.050000190734863, 4.050000190734863]
location: "id0"
serial_number: ''
---
header: 
  seq: 107
  stamp: 
    secs: 1582658718
    nsecs: 188473067
  frame_id: ''
voltage: 12.1499996185
current: 1.0
charge: nan
capacity: nan
design_capacity: nan
percentage: 1.0
power_supply_status: 2
power_supply_health: 0
power_supply_technology: 3
present: True
cell_voltage: [4.050000190734863, 4.050000190734863, 4.050000190734863]
location: "id0"
serial_number: ''
---
header: 
  seq: 108
  stamp: 
    secs: 1582658718
    nsecs: 525723289
  frame_id: ''
voltage: 12.1499996185
current: 1.0
charge: nan
capacity: nan
design_capacity: nan
percentage: 1.0
power_supply_status: 2
power_supply_health: 0
power_supply_technology: 3
present: True
cell_voltage: [4.050000190734863, 4.050000190734863, 4.050000190734863]
location: "id0"
serial_number: ''
---
header: 
  seq: 109
  stamp: 
    secs: 1582658718
    nsecs: 947753771
  frame_id: ''
voltage: 12.1499996185
current: 1.0
charge: nan
capacity: nan
design_capacity: nan
percentage: 1.0
power_supply_status: 2
power_supply_health: 0
power_supply_technology: 3
present: True
cell_voltage: [4.050000190734863, 4.050000190734863, 4.050000190734863]
location: "id0"
serial_number: ''
---
header: 
  seq: 110
  stamp: 
    secs: 1582658719
    nsecs: 356455827
  frame_id: ''
voltage: 12.1499996185
current: 1.0
charge: nan
capacity: nan
design_capacity: nan
percentage: 1.0
power_supply_status: 2
power_supply_health: 0
power_supply_technology: 3
present: True
cell_voltage: [4.050000190734863, 4.050000190734863, 4.050000190734863]
location: "id0"
serial_number: ''
---
header: 
  seq: 111
  stamp: 
    secs: 1582658720
    nsecs:  30332587
  frame_id: ''
voltage: 12.1499996185
current: 1.0
charge: nan
capacity: nan
design_capacity: nan
percentage: 1.0
power_supply_status: 2
power_supply_health: 0
power_supply_technology: 3
present: True
cell_voltage: [4.050000190734863, 4.050000190734863, 4.050000190734863]
location: "id0"
serial_number: ''
---
header: 
  seq: 112
  stamp: 
    secs: 1582658720
    nsecs: 625470796
  frame_id: ''
voltage: 12.1499996185
current: 1.0
charge: nan
capacity: nan
design_capacity: nan
percentage: 1.0
power_supply_status: 2
power_supply_health: 0
power_supply_technology: 3
present: True
cell_voltage: [4.050000190734863, 4.050000190734863, 4.050000190734863]
location: "id0"
serial_number: ''
---
header: 
  seq: 113
  stamp: 
    secs: 1582658721
    nsecs: 194833675
  frame_id: ''
voltage: 12.1499996185
current: 1.0
charge: nan
capacity: nan
design_capacity: nan
percentage: 1.0
power_supply_status: 2
power_supply_health: 0
power_supply_technology: 3
present: True
cell_voltage: [4.050000190734863, 4.050000190734863, 4.050000190734863]
location: "id0"
serial_number: ''
---
header: 
  seq: 114
  stamp: 
    secs: 1582658721
    nsecs: 419580056
  frame_id: ''
voltage: 12.1499996185
current: 1.0
charge: nan
capacity: nan
design_capacity: nan
percentage: 1.0
power_supply_status: 2
power_supply_health: 0
power_supply_technology: 3
present: True
cell_voltage: [4.050000190734863, 4.050000190734863, 4.050000190734863]
location: "id0"
serial_number: ''
---
header: 
  seq: 115
  stamp: 
    secs: 1582658721
    nsecs: 623393824
  frame_id: ''
voltage: 12.1499996185
current: 1.0
charge: nan
capacity: nan
design_capacity: nan
percentage: 1.0
power_supply_status: 2
power_supply_health: 0
power_supply_technology: 3
present: True
cell_voltage: [4.050000190734863, 4.050000190734863, 4.050000190734863]
location: "id0"
serial_number: ''
---
header: 
  seq: 116
  stamp: 
    secs: 1582658721
    nsecs: 862924727
  frame_id: ''
voltage: 12.1499996185
current: 1.0
charge: nan
capacity: nan
design_capacity: nan
percentage: 1.0
power_supply_status: 2
power_supply_health: 0
power_supply_technology: 3
present: True
cell_voltage: [4.050000190734863, 4.050000190734863, 4.050000190734863]
location: "id0"
serial_number: ''
---
header: 
  seq: 117
  stamp: 
    secs: 1582658722
    nsecs: 334277766
  frame_id: ''
voltage: 12.1499996185
current: 1.0
charge: nan
capacity: nan
design_capacity: nan
percentage: 1.0
power_supply_status: 2
power_supply_health: 0
power_supply_technology: 3
present: True
cell_voltage: [4.050000190734863, 4.050000190734863, 4.050000190734863]
location: "id0"
serial_number: ''
---
header: 
  seq: 118
  stamp: 
    secs: 1582658722
    nsecs: 568376420
  frame_id: ''
voltage: 12.1499996185
current: 1.0
charge: nan
capacity: nan
design_capacity: nan
percentage: 1.0
power_supply_status: 2
power_supply_health: 0
power_supply_technology: 3
present: True
cell_voltage: [4.050000190734863, 4.050000190734863, 4.050000190734863]
location: "id0"
serial_number: ''
---
header: 
  seq: 119
  stamp: 
    secs: 1582658722
    nsecs: 887690297
  frame_id: ''
voltage: 12.1499996185
current: 1.0
charge: nan
capacity: nan
design_capacity: nan
percentage: 1.0
power_supply_status: 2
power_supply_health: 0
power_supply_technology: 3
present: True
cell_voltage: [4.050000190734863, 4.050000190734863, 4.050000190734863]
location: "id0"
serial_number: ''
---
header: 
  seq: 120
  stamp: 
    secs: 1582658723
    nsecs: 211100732
  frame_id: ''
voltage: 12.1499996185
current: 1.0
charge: nan
capacity: nan
design_capacity: nan
percentage: 1.0
power_supply_status: 2
power_supply_health: 0
power_supply_technology: 3
present: True
cell_voltage: [4.050000190734863, 4.050000190734863, 4.050000190734863]
location: "id0"
serial_number: ''
---
header: 
  seq: 121
  stamp: 
    secs: 1582658723
    nsecs: 812129306
  frame_id: ''
voltage: 12.1499996185
current: 1.0
charge: nan
capacity: nan
design_capacity: nan
percentage: 1.0
power_supply_status: 2
power_supply_health: 0
power_supply_technology: 3
present: True
cell_voltage: [4.050000190734863, 4.050000190734863, 4.050000190734863]
location: "id0"
serial_number: ''
---
header: 
  seq: 122
  stamp: 
    secs: 1582658724
    nsecs: 260776040
  frame_id: ''
voltage: 12.1499996185
current: 1.0
charge: nan
capacity: nan
design_capacity: nan
percentage: 1.0
power_supply_status: 2
power_supply_health: 0
power_supply_technology: 3
present: True
cell_voltage: [4.050000190734863, 4.050000190734863, 4.050000190734863]
location: "id0"
serial_number: ''
---
header: 
  seq: 123
  stamp: 
    secs: 1582658724
    nsecs: 852580177
  frame_id: ''
voltage: 12.1499996185
current: 1.0
charge: nan
capacity: nan
design_capacity: nan
percentage: 1.0
power_supply_status: 2
power_supply_health: 0
power_supply_technology: 3
present: True
cell_voltage: [4.050000190734863, 4.050000190734863, 4.050000190734863]
location: "id0"
serial_number: ''
---
header: 
  seq: 124
  stamp: 
    secs: 1582658725
    nsecs: 436348708
  frame_id: ''
voltage: 12.1499996185
current: 1.0
charge: nan
capacity: nan
design_capacity: nan
percentage: 1.0
power_supply_status: 2
power_supply_health: 0
power_supply_technology: 3
present: True
cell_voltage: [4.050000190734863, 4.050000190734863, 4.050000190734863]
location: "id0"
serial_number: ''
---
header: 
  seq: 125
  stamp: 
    secs: 1582658725
    nsecs: 921680752
  frame_id: ''
voltage: 12.1499996185
current: 1.0
charge: nan
capacity: nan
design_capacity: nan
percentage: 1.0
power_supply_status: 2
power_supply_health: 0
power_supply_technology: 3
present: True
cell_voltage: [4.050000190734863, 4.050000190734863, 4.050000190734863]
location: "id0"
serial_number: ''
---
header: 
  seq: 126
  stamp: 
    secs: 1582658726
    nsecs: 544855905
  frame_id: ''
voltage: 12.1499996185
current: 1.0
charge: nan
capacity: nan
design_capacity: nan
percentage: 1.0
power_supply_status: 2
power_supply_health: 0
power_supply_technology: 3
present: True
cell_voltage: [4.050000190734863, 4.050000190734863, 4.050000190734863]
location: "id0"
serial_number: ''
---
header: 
  seq: 127
  stamp: 
    secs: 1582658727
    nsecs: 107850458
  frame_id: ''
voltage: 12.1499996185
current: 1.0
charge: nan
capacity: nan
design_capacity: nan
percentage: 1.0
power_supply_status: 2
power_supply_health: 0
power_supply_technology: 3
present: True
cell_voltage: [4.050000190734863, 4.050000190734863, 4.050000190734863]
location: "id0"
serial_number: ''
---
header: 
  seq: 128
  stamp: 
    secs: 1582658727
    nsecs: 662543233
  frame_id: ''
voltage: 12.1499996185
current: 1.0
charge: nan
capacity: nan
design_capacity: nan
percentage: 1.0
power_supply_status: 2
power_supply_health: 0
power_supply_technology: 3
present: True
cell_voltage: [4.050000190734863, 4.050000190734863, 4.050000190734863]
location: "id0"
serial_number: ''
---
header: 
  seq: 129
  stamp: 
    secs: 1582658728
    nsecs: 246774124
  frame_id: ''
voltage: 12.1499996185
current: 1.0
charge: nan
capacity: nan
design_capacity: nan
percentage: 1.0
power_supply_status: 2
power_supply_health: 0
power_supply_technology: 3
present: True
cell_voltage: [4.050000190734863, 4.050000190734863, 4.050000190734863]
location: "id0"
serial_number: ''
---
header: 
  seq: 130
  stamp: 
    secs: 1582658728
    nsecs: 743861728
  frame_id: ''
voltage: 12.1499996185
current: 1.0
charge: nan
capacity: nan
design_capacity: nan
percentage: 1.0
power_supply_status: 2
power_supply_health: 0
power_supply_technology: 3
present: True
cell_voltage: [4.050000190734863, 4.050000190734863, 4.050000190734863]
location: "id0"
serial_number: ''
---
header: 
  seq: 131
  stamp: 
    secs: 1582658729
    nsecs:  99352201
  frame_id: ''
voltage: 12.1499996185
current: 1.0
charge: nan
capacity: nan
design_capacity: nan
percentage: 1.0
power_supply_status: 2
power_supply_health: 0
power_supply_technology: 3
present: True
cell_voltage: [4.050000190734863, 4.050000190734863, 4.050000190734863]
location: "id0"
serial_number: ''
---
header: 
  seq: 132
  stamp: 
    secs: 1582658729
    nsecs: 639543957
  frame_id: ''
voltage: 12.1499996185
current: 1.0
charge: nan
capacity: nan
design_capacity: nan
percentage: 1.0
power_supply_status: 2
power_supply_health: 0
power_supply_technology: 3
present: True
cell_voltage: [4.050000190734863, 4.050000190734863, 4.050000190734863]
location: "id0"
serial_number: ''
---
header: 
  seq: 133
  stamp: 
    secs: 1582658730
    nsecs: 193584600
  frame_id: ''
voltage: 12.1499996185
current: 1.0
charge: nan
capacity: nan
design_capacity: nan
percentage: 1.0
power_supply_status: 2
power_supply_health: 0
power_supply_technology: 3
present: True
cell_voltage: [4.050000190734863, 4.050000190734863, 4.050000190734863]
location: "id0"
serial_number: ''
---
header: 
  seq: 134
  stamp: 
    secs: 1582658730
    nsecs: 739861504
  frame_id: ''
voltage: 12.1499996185
current: 1.0
charge: nan
capacity: nan
design_capacity: nan
percentage: 1.0
power_supply_status: 2
power_supply_health: 0
power_supply_technology: 3
present: True
cell_voltage: [4.050000190734863, 4.050000190734863, 4.050000190734863]
location: "id0"
serial_number: ''
---
header: 
  seq: 135
  stamp: 
    secs: 1582658731
    nsecs: 304796381
  frame_id: ''
voltage: 12.1499996185
current: 1.0
charge: nan
capacity: nan
design_capacity: nan
percentage: 1.0
power_supply_status: 2
power_supply_health: 0
power_supply_technology: 3
present: True
cell_voltage: [4.050000190734863, 4.050000190734863, 4.050000190734863]
location: "id0"
serial_number: ''
---
header: 
  seq: 136
  stamp: 
    secs: 1582658731
    nsecs: 873348789
  frame_id: ''
voltage: 12.1499996185
current: 1.0
charge: nan
capacity: nan
design_capacity: nan
percentage: 1.0
power_supply_status: 2
power_supply_health: 0
power_supply_technology: 3
present: True
cell_voltage: [4.050000190734863, 4.050000190734863, 4.050000190734863]
location: "id0"
serial_number: ''
---
header: 
  seq: 137
  stamp: 
    secs: 1582658732
    nsecs: 395142323
  frame_id: ''
voltage: 12.1499996185
current: 1.0
charge: nan
capacity: nan
design_capacity: nan
percentage: 1.0
power_supply_status: 2
power_supply_health: 0
power_supply_technology: 3
present: True
cell_voltage: [4.050000190734863, 4.050000190734863, 4.050000190734863]
location: "id0"
serial_number: ''
---
header: 
  seq: 138
  stamp: 
    secs: 1582658732
    nsecs: 925997854
  frame_id: ''
voltage: 12.1499996185
current: 1.0
charge: nan
capacity: nan
design_capacity: nan
percentage: 1.0
power_supply_status: 2
power_supply_health: 0
power_supply_technology: 3
present: True
cell_voltage: [4.050000190734863, 4.050000190734863, 4.050000190734863]
location: "id0"
serial_number: ''
---
header: 
  seq: 139
  stamp: 
    secs: 1582658733
    nsecs: 403989129
  frame_id: ''
voltage: 12.1499996185
current: 1.0
charge: nan
capacity: nan
design_capacity: nan
percentage: 1.0
power_supply_status: 2
power_supply_health: 0
power_supply_technology: 3
present: True
cell_voltage: [4.050000190734863, 4.050000190734863, 4.050000190734863]
location: "id0"
serial_number: ''
---
header: 
  seq: 140
  stamp: 
    secs: 1582658733
    nsecs: 984338016
  frame_id: ''
voltage: 12.1499996185
current: 1.0
charge: nan
capacity: nan
design_capacity: nan
percentage: 1.0
power_supply_status: 2
power_supply_health: 0
power_supply_technology: 3
present: True
cell_voltage: [4.050000190734863, 4.050000190734863, 4.050000190734863]
location: "id0"
serial_number: ''
---
header: 
  seq: 141
  stamp: 
    secs: 1582658734
    nsecs: 476696449
  frame_id: ''
voltage: 12.1499996185
current: 1.0
charge: nan
capacity: nan
design_capacity: nan
percentage: 1.0
power_supply_status: 2
power_supply_health: 0
power_supply_technology: 3
present: True
cell_voltage: [4.050000190734863, 4.050000190734863, 4.050000190734863]
location: "id0"
serial_number: ''
---
header: 
  seq: 142
  stamp: 
    secs: 1582658734
    nsecs: 932195934
  frame_id: ''
voltage: 12.1499996185
current: 1.0
charge: nan
capacity: nan
design_capacity: nan
percentage: 1.0
power_supply_status: 2
power_supply_health: 0
power_supply_technology: 3
present: True
cell_voltage: [4.050000190734863, 4.050000190734863, 4.050000190734863]
location: "id0"
serial_number: ''
---
header: 
  seq: 143
  stamp: 
    secs: 1582658735
    nsecs: 386560222
  frame_id: ''
voltage: 12.1499996185
current: 1.0
charge: nan
capacity: nan
design_capacity: nan
percentage: 1.0
power_supply_status: 2
power_supply_health: 0
power_supply_technology: 3
present: True
cell_voltage: [4.050000190734863, 4.050000190734863, 4.050000190734863]
location: "id0"
serial_number: ''
---
header: 
  seq: 144
  stamp: 
    secs: 1582658735
    nsecs: 859097684
  frame_id: ''
voltage: 12.1499996185
current: 1.0
charge: nan
capacity: nan
design_capacity: nan
percentage: 1.0
power_supply_status: 2
power_supply_health: 0
power_supply_technology: 3
present: True
cell_voltage: [4.050000190734863, 4.050000190734863, 4.050000190734863]
location: "id0"
serial_number: ''
---
header: 
  seq: 145
  stamp: 
    secs: 1582658736
    nsecs:  63941248
  frame_id: ''
voltage: 12.1499996185
current: 1.0
charge: nan
capacity: nan
design_capacity: nan
percentage: 1.0
power_supply_status: 2
power_supply_health: 0
power_supply_technology: 3
present: True
cell_voltage: [4.050000190734863, 4.050000190734863, 4.050000190734863]
location: "id0"
serial_number: ''
---
header: 
  seq: 146
  stamp: 
    secs: 1582658736
    nsecs: 528777022
  frame_id: ''
voltage: 12.1499996185
current: 1.0
charge: nan
capacity: nan
design_capacity: nan
percentage: 1.0
power_supply_status: 2
power_supply_health: 0
power_supply_technology: 3
present: True
cell_voltage: [4.050000190734863, 4.050000190734863, 4.050000190734863]
location: "id0"
serial_number: ''
---
header: 
  seq: 147
  stamp: 
    secs: 1582658736
    nsecs: 973904433
  frame_id: ''
voltage: 12.1490001678
current: 1.0
charge: nan
capacity: nan
design_capacity: nan
percentage: 1.0
power_supply_status: 2
power_supply_health: 0
power_supply_technology: 3
present: True
cell_voltage: [4.048999786376953, 4.048999786376953, 4.048999786376953]
location: "id0"
serial_number: ''
---
header: 
  seq: 148
  stamp: 
    secs: 1582658737
    nsecs: 320523187
  frame_id: ''
voltage: 12.1490001678
current: 1.0
charge: nan
capacity: nan
design_capacity: nan
percentage: 1.0
power_supply_status: 2
power_supply_health: 0
power_supply_technology: 3
present: True
cell_voltage: [4.046999931335449, 4.046999931335449, 4.046999931335449]
location: "id0"
serial_number: ''
---
header: 
  seq: 149
  stamp: 
    secs: 1582658737
    nsecs: 690739831
  frame_id: ''
voltage: 12.1479997635
current: 1.0
charge: nan
capacity: nan
design_capacity: nan
percentage: 1.0
power_supply_status: 2
power_supply_health: 0
power_supply_technology: 3
present: True
cell_voltage: [4.046000003814697, 4.046000003814697, 4.046000003814697]
location: "id0"
serial_number: ''
---
header: 
  seq: 150
  stamp: 
    secs: 1582658737
    nsecs: 978183988
  frame_id: ''
voltage: 12.1459999084
current: 1.0
charge: nan
capacity: nan
design_capacity: nan
percentage: 1.0
power_supply_status: 2
power_supply_health: 0
power_supply_technology: 3
present: True
cell_voltage: [4.044000148773193, 4.044000148773193, 4.044000148773193]
location: "id0"
serial_number: ''
---
header: 
  seq: 151
  stamp: 
    secs: 1582658738
    nsecs: 474799457
  frame_id: ''
voltage: 12.142999649
current: 1.0
charge: nan
capacity: nan
design_capacity: nan
percentage: 1.0
power_supply_status: 2
power_supply_health: 0
power_supply_technology: 3
present: True
cell_voltage: [4.041999816894531, 4.041999816894531, 4.041999816894531]
location: "id0"
serial_number: ''
---
header: 
  seq: 152
  stamp: 
    secs: 1582658738
    nsecs: 828368385
  frame_id: ''
voltage: 12.1400003433
current: 1.0
charge: nan
capacity: nan
design_capacity: nan
percentage: 1.0
power_supply_status: 2
power_supply_health: 0
power_supply_technology: 3
present: True
cell_voltage: [4.039999961853027, 4.039999961853027, 4.039999961853027]
location: "id0"
serial_number: ''
---
header: 
  seq: 153
  stamp: 
    secs: 1582658739
    nsecs: 274596882
  frame_id: ''
voltage: 12.1370000839
current: 1.0
charge: nan
capacity: nan
design_capacity: nan
percentage: 1.0
power_supply_status: 2
power_supply_health: 0
power_supply_technology: 3
present: True
cell_voltage: [4.038000106811523, 4.038000106811523, 4.038000106811523]
location: "id0"
serial_number: ''
---
header: 
  seq: 154
  stamp: 
    secs: 1582658739
    nsecs: 727698562
  frame_id: ''
voltage: 12.1330003738
current: 1.0
charge: nan
capacity: nan
design_capacity: nan
percentage: 1.0
power_supply_status: 2
power_supply_health: 0
power_supply_technology: 3
present: True
cell_voltage: [4.035999774932861, 4.035999774932861, 4.035999774932861]
location: "id0"
serial_number: ''
---
header: 
  seq: 155
  stamp: 
    secs: 1582658740
    nsecs: 202713868
  frame_id: ''
voltage: 12.1289997101
current: 1.0
charge: nan
capacity: nan
design_capacity: nan
percentage: 0.990000009537
power_supply_status: 2
power_supply_health: 0
power_supply_technology: 3
present: True
cell_voltage: [4.034999847412109, 4.034999847412109, 4.034999847412109]
location: "id0"
serial_number: ''
---
header: 
  seq: 156
  stamp: 
    secs: 1582658740
    nsecs: 585792929
  frame_id: ''
voltage: 12.125
current: 1.0
charge: nan
capacity: nan
design_capacity: nan
percentage: 0.990000009537
power_supply_status: 2
power_supply_health: 0
power_supply_technology: 3
present: True
cell_voltage: [4.0329999923706055, 4.0329999923706055, 4.0329999923706055]
location: "id0"
serial_number: ''
---
header: 
  seq: 157
  stamp: 
    secs: 1582658741
    nsecs:  50046648
  frame_id: ''
voltage: 12.1199998856
current: 1.0
charge: nan
capacity: nan
design_capacity: nan
percentage: 0.990000009537
power_supply_status: 2
power_supply_health: 0
power_supply_technology: 3
present: True
cell_voltage: [4.031000137329102, 4.031000137329102, 4.031000137329102]
location: "id0"
serial_number: ''
---
header: 
  seq: 158
  stamp: 
    secs: 1582658741
    nsecs: 486498133
  frame_id: ''
voltage: 12.1160001755
current: 1.0
charge: nan
capacity: nan
design_capacity: nan
percentage: 0.980000019073
power_supply_status: 2
power_supply_health: 0
power_supply_technology: 3
present: True
cell_voltage: [4.0289998054504395, 4.0289998054504395, 4.0289998054504395]
location: "id0"
serial_number: ''
---
header: 
  seq: 159
  stamp: 
    secs: 1582658741
    nsecs: 928936722
  frame_id: ''
voltage: 12.111000061
current: 1.0
charge: nan
capacity: nan
design_capacity: nan
percentage: 0.980000019073
power_supply_status: 2
power_supply_health: 0
power_supply_technology: 3
present: True
cell_voltage: [4.0269999504089355, 4.0269999504089355, 4.0269999504089355]
location: "id0"
serial_number: ''
---
header: 
  seq: 160
  stamp: 
    secs: 1582658742
    nsecs: 353671885
  frame_id: ''
voltage: 12.1059999466
current: 1.0
charge: nan
capacity: nan
design_capacity: nan
percentage: 0.980000019073
power_supply_status: 2
power_supply_health: 0
power_supply_technology: 3
present: True
cell_voltage: [4.025000095367432, 4.025000095367432, 4.025000095367432]
location: "id0"
serial_number: ''
---
header: 
  seq: 161
  stamp: 
    secs: 1582658742
    nsecs: 770994967
  frame_id: ''
voltage: 12.1009998322
current: 1.0
charge: nan
capacity: nan
design_capacity: nan
percentage: 0.980000019073
power_supply_status: 2
power_supply_health: 0
power_supply_technology: 3
present: True
cell_voltage: [4.02400016784668, 4.02400016784668, 4.02400016784668]
location: "id0"
serial_number: ''
---
header: 
  seq: 162
  stamp: 
    secs: 1582658743
    nsecs: 223689648
  frame_id: ''
voltage: 12.0959997177
current: 1.0
charge: nan
capacity: nan
design_capacity: nan
percentage: 0.97000002861
power_supply_status: 2
power_supply_health: 0
power_supply_technology: 3
present: True
cell_voltage: [4.021999835968018, 4.021999835968018, 4.021999835968018]
location: "id0"
serial_number: ''
---
header: 
  seq: 163
  stamp: 
    secs: 1582658743
    nsecs: 603830510
  frame_id: ''
voltage: 12.0909996033
current: 1.0
charge: nan
capacity: nan
design_capacity: nan
percentage: 0.97000002861
power_supply_status: 2
power_supply_health: 0
power_supply_technology: 3
present: True
cell_voltage: [4.019999980926514, 4.019999980926514, 4.019999980926514]
location: "id0"
serial_number: ''
---
header: 
  seq: 164
  stamp: 
    secs: 1582658744
    nsecs: 101022460
  frame_id: ''
voltage: 12.0860004425
current: 1.0
charge: nan
capacity: nan
design_capacity: nan
percentage: 0.97000002861
power_supply_status: 2
power_supply_health: 0
power_supply_technology: 3
present: True
cell_voltage: [4.01800012588501, 4.01800012588501, 4.01800012588501]
location: "id0"
serial_number: ''
---
header: 
  seq: 165
  stamp: 
    secs: 1582658744
    nsecs: 625557681
  frame_id: ''
voltage: 12.0810003281
current: 1.0
charge: nan
capacity: nan
design_capacity: nan
percentage: 0.959999978542
power_supply_status: 2
power_supply_health: 0
power_supply_technology: 3
present: True
cell_voltage: [4.015999794006348, 4.015999794006348, 4.015999794006348]
location: "id0"
serial_number: ''
---
header: 
  seq: 166
  stamp: 
    secs: 1582658745
    nsecs: 151342655
  frame_id: ''
voltage: 12.0760002136
current: 1.0
charge: nan
capacity: nan
design_capacity: nan
percentage: 0.959999978542
power_supply_status: 2
power_supply_health: 0
power_supply_technology: 3
present: True
cell_voltage: [4.013999938964844, 4.013999938964844, 4.013999938964844]
location: "id0"
serial_number: ''
---
header: 
  seq: 167
  stamp: 
    secs: 1582658745
    nsecs: 615728642
  frame_id: ''
voltage: 12.0699996948
current: 1.0
charge: nan
capacity: nan
design_capacity: nan
percentage: 0.959999978542
power_supply_status: 2
power_supply_health: 0
power_supply_technology: 3
present: True
cell_voltage: [4.013000011444092, 4.013000011444092, 4.013000011444092]
location: "id0"
serial_number: ''
---
header: 
  seq: 168
  stamp: 
    secs: 1582658746
    nsecs:  46116206
  frame_id: ''
voltage: 12.0649995804
current: 1.0
charge: nan
capacity: nan
design_capacity: nan
percentage: 0.949999988079
power_supply_status: 2
power_supply_health: 0
power_supply_technology: 3
present: True
cell_voltage: [4.011000156402588, 4.011000156402588, 4.011000156402588]
location: "id0"
serial_number: ''
---
header: 
  seq: 169
  stamp: 
    secs: 1582658746
    nsecs: 504485182
  frame_id: ''
voltage: 12.0600004196
current: 1.0
charge: nan
capacity: nan
design_capacity: nan
percentage: 0.949999988079
power_supply_status: 2
power_supply_health: 0
power_supply_technology: 3
present: True
cell_voltage: [4.008999824523926, 4.008999824523926, 4.008999824523926]
location: "id0"
serial_number: ''
---
header: 
  seq: 170
  stamp: 
    secs: 1582658746
    nsecs: 946004588
  frame_id: ''
voltage: 12.0539999008
current: 1.0
charge: nan
capacity: nan
design_capacity: nan
percentage: 0.949999988079
power_supply_status: 2
power_supply_health: 0
power_supply_technology: 3
present: True
cell_voltage: [4.006999969482422, 4.006999969482422, 4.006999969482422]
location: "id0"
serial_number: ''
---
header: 
  seq: 171
  stamp: 
    secs: 1582658747
    nsecs: 392833727
  frame_id: ''
voltage: 12.0489997864
current: 1.0
charge: nan
capacity: nan
design_capacity: nan
percentage: 0.939999997616
power_supply_status: 2
power_supply_health: 0
power_supply_technology: 3
present: True
cell_voltage: [4.005000114440918, 4.005000114440918, 4.005000114440918]
location: "id0"
serial_number: ''
---
header: 
  seq: 172
  stamp: 
    secs: 1582658747
    nsecs: 694895184
  frame_id: ''
voltage: 12.0430002213
current: 1.0
charge: nan
capacity: nan
design_capacity: nan
percentage: 0.939999997616
power_supply_status: 2
power_supply_health: 0
power_supply_technology: 3
present: True
cell_voltage: [4.002999782562256, 4.002999782562256, 4.002999782562256]
location: "id0"
serial_number: ''
---
header: 
  seq: 173
  stamp: 
    secs: 1582658747
    nsecs: 801835491
  frame_id: ''
voltage: 12.0380001068
current: 1.0
charge: nan
capacity: nan
design_capacity: nan
percentage: 0.939999997616
power_supply_status: 2
power_supply_health: 0
power_supply_technology: 3
present: True
cell_voltage: [4.001999855041504, 4.001999855041504, 4.001999855041504]
location: "id0"
serial_number: ''
---
header: 
  seq: 174
  stamp: 
    secs: 1582658748
    nsecs: 307245777
  frame_id: ''
voltage: 12.031999588
current: 1.0
charge: nan
capacity: nan
design_capacity: nan
percentage: 0.930000007153
power_supply_status: 2
power_supply_health: 0
power_supply_technology: 3
present: True
cell_voltage: [4.0, 4.0, 4.0]
location: "id0"
serial_number: ''
---
header: 
  seq: 175
  stamp: 
    secs: 1582658748
    nsecs: 802206788
  frame_id: ''
voltage: 12.0270004272
current: 1.0
charge: nan
capacity: nan
design_capacity: nan
percentage: 0.930000007153
power_supply_status: 2
power_supply_health: 0
power_supply_technology: 3
present: True
cell_voltage: [3.997999906539917, 3.997999906539917, 3.997999906539917]
location: "id0"
serial_number: ''
---
header: 
  seq: 176
  stamp: 
    secs: 1582658749
    nsecs: 214571857
  frame_id: ''
voltage: 12.0220003128
current: 1.0
charge: nan
capacity: nan
design_capacity: nan
percentage: 0.930000007153
power_supply_status: 2
power_supply_health: 0
power_supply_technology: 3
present: True
cell_voltage: [3.996000051498413, 3.996000051498413, 3.996000051498413]
location: "id0"
serial_number: ''
---
header: 
  seq: 177
  stamp: 
    secs: 1582658749
    nsecs: 636080828
  frame_id: ''
voltage: 12.015999794
current: 1.0
charge: nan
capacity: nan
design_capacity: nan
percentage: 0.920000016689
power_supply_status: 2
power_supply_health: 0
power_supply_technology: 3
present: True
cell_voltage: [3.99399995803833, 3.99399995803833, 3.99399995803833]
location: "id0"
serial_number: ''
---
header: 
  seq: 178
  stamp: 
    secs: 1582658750
    nsecs:  70884243
  frame_id: ''
voltage: 12.0109996796
current: 1.0
charge: nan
capacity: nan
design_capacity: nan
percentage: 0.920000016689
power_supply_status: 2
power_supply_health: 0
power_supply_technology: 3
present: True
cell_voltage: [3.992000102996826, 3.992000102996826, 3.992000102996826]
location: "id0"
serial_number: ''
---
header: 
  seq: 179
  stamp: 
    secs: 1582658750
    nsecs: 547578096
  frame_id: ''
voltage: 12.0050001144
current: 1.0
charge: nan
capacity: nan
design_capacity: nan
percentage: 0.920000016689
power_supply_status: 2
power_supply_health: 0
power_supply_technology: 3
present: True
cell_voltage: [3.990999937057495, 3.990999937057495, 3.990999937057495]
location: "id0"
serial_number: ''
---
header: 
  seq: 180
  stamp: 
    secs: 1582658750
    nsecs: 956301612
  frame_id: ''
voltage: 12.0
current: 1.0
charge: nan
capacity: nan
design_capacity: nan
percentage: 0.910000026226
power_supply_status: 2
power_supply_health: 0
power_supply_technology: 3
present: True
cell_voltage: [3.989000082015991, 3.989000082015991, 3.989000082015991]
location: "id0"
serial_number: ''
---
header: 
  seq: 181
  stamp: 
    secs: 1582658751
    nsecs: 395751844
  frame_id: ''
voltage: 11.9940004349
current: 1.0
charge: nan
capacity: nan
design_capacity: nan
percentage: 0.910000026226
power_supply_status: 2
power_supply_health: 0
power_supply_technology: 3
present: True
cell_voltage: [3.986999988555908, 3.986999988555908, 3.986999988555908]
location: "id0"
serial_number: ''
---
header: 
  seq: 182
  stamp: 
    secs: 1582658751
    nsecs: 806398050
  frame_id: ''
voltage: 11.9890003204
current: 1.0
charge: nan
capacity: nan
design_capacity: nan
percentage: 0.910000026226
power_supply_status: 2
power_supply_health: 0
power_supply_technology: 3
present: True
cell_voltage: [3.984999895095825, 3.984999895095825, 3.984999895095825]
location: "id0"
serial_number: ''
---
header: 
  seq: 183
  stamp: 
    secs: 1582658752
    nsecs: 277894475
  frame_id: ''
voltage: 11.9829998016
current: 1.0
charge: nan
capacity: nan
design_capacity: nan
percentage: 0.899999976158
power_supply_status: 2
power_supply_health: 0
power_supply_technology: 3
present: True
cell_voltage: [3.9830000400543213, 3.9830000400543213, 3.9830000400543213]
location: "id0"
serial_number: ''
---
header: 
  seq: 184
  stamp: 
    secs: 1582658752
    nsecs: 751904042
  frame_id: ''
voltage: 11.9779996872
current: 1.0
charge: nan
capacity: nan
design_capacity: nan
percentage: 0.899999976158
power_supply_status: 2
power_supply_health: 0
power_supply_technology: 3
present: True
cell_voltage: [3.9809999465942383, 3.9809999465942383, 3.9809999465942383]
location: "id0"
serial_number: ''
---
header: 
  seq: 185
  stamp: 
    secs: 1582658753
    nsecs: 249382907
  frame_id: ''
voltage: 11.9720001221
current: 1.0
charge: nan
capacity: nan
design_capacity: nan
percentage: 0.899999976158
power_supply_status: 2
power_supply_health: 0
power_supply_technology: 3
present: True
cell_voltage: [3.9800000190734863, 3.9800000190734863, 3.9800000190734863]
location: "id0"
serial_number: ''
---
header: 
  seq: 186
  stamp: 
    secs: 1582658753
    nsecs: 686710906
  frame_id: ''
voltage: 11.9670000076
current: 1.0
charge: nan
capacity: nan
design_capacity: nan
percentage: 0.889999985695
power_supply_status: 2
power_supply_health: 0
power_supply_technology: 3
present: True
cell_voltage: [3.9779999256134033, 3.9779999256134033, 3.9779999256134033]
location: "id0"
serial_number: ''
---
header: 
  seq: 187
  stamp: 
    secs: 1582658754
    nsecs: 206842306
  frame_id: ''
voltage: 11.9610004425
current: 1.0
charge: nan
capacity: nan
design_capacity: nan
percentage: 0.889999985695
power_supply_status: 2
power_supply_health: 0
power_supply_technology: 3
present: True
cell_voltage: [3.9760000705718994, 3.9760000705718994, 3.9760000705718994]
location: "id0"
serial_number: ''
---
header: 
  seq: 188
  stamp: 
    secs: 1582658754
    nsecs: 592424240
  frame_id: ''
voltage: 11.9560003281
current: 1.0
charge: nan
capacity: nan
design_capacity: nan
percentage: 0.889999985695
power_supply_status: 2
power_supply_health: 0
power_supply_technology: 3
present: True
cell_voltage: [3.9739999771118164, 3.9739999771118164, 3.9739999771118164]
location: "id0"
serial_number: ''
---
header: 
  seq: 189
  stamp: 
    secs: 1582658755
    nsecs:  57045710
  frame_id: ''
voltage: 11.9499998093
current: 1.0
charge: nan
capacity: nan
design_capacity: nan
percentage: 0.879999995232
power_supply_status: 2
power_supply_health: 0
power_supply_technology: 3
present: True
cell_voltage: [3.9719998836517334, 3.9719998836517334, 3.9719998836517334]
location: "id0"
serial_number: ''
---
header: 
  seq: 190
  stamp: 
    secs: 1582658755
    nsecs: 497693226
  frame_id: ''
voltage: 11.9449996948
current: 1.0
charge: nan
capacity: nan
design_capacity: nan
percentage: 0.879999995232
power_supply_status: 2
power_supply_health: 0
power_supply_technology: 3
present: True
cell_voltage: [3.9700000286102295, 3.9700000286102295, 3.9700000286102295]
location: "id0"
serial_number: ''
---
header: 
  seq: 191
  stamp: 
    secs: 1582658755
    nsecs: 967494246
  frame_id: ''
voltage: 11.9390001297
current: 1.0
charge: nan
capacity: nan
design_capacity: nan
percentage: 0.879999995232
power_supply_status: 2
power_supply_health: 0
power_supply_technology: 3
present: True
cell_voltage: [3.9690001010894775, 3.9690001010894775, 3.9690001010894775]
location: "id0"
serial_number: ''
---
header: 
  seq: 192
  stamp: 
    secs: 1582658756
    nsecs: 425562036
  frame_id: ''
voltage: 11.9340000153
current: 1.0
charge: nan
capacity: nan
design_capacity: nan
percentage: 0.870000004768
power_supply_status: 2
power_supply_health: 0
power_supply_technology: 3
present: True
cell_voltage: [3.9670000076293945, 3.9670000076293945, 3.9670000076293945]
location: "id0"
serial_number: ''
---
header: 
  seq: 193
  stamp: 
    secs: 1582658756
    nsecs: 816399900
  frame_id: ''
voltage: 11.9280004501
current: 1.0
charge: nan
capacity: nan
design_capacity: nan
percentage: 0.870000004768
power_supply_status: 2
power_supply_health: 0
power_supply_technology: 3
present: True
cell_voltage: [3.9649999141693115, 3.9649999141693115, 3.9649999141693115]
location: "id0"
serial_number: ''
---
header: 
  seq: 194
  stamp: 
    secs: 1582658757
    nsecs: 267115814
  frame_id: ''
voltage: 11.9230003357
current: 1.0
charge: nan
capacity: nan
design_capacity: nan
percentage: 0.870000004768
power_supply_status: 2
power_supply_health: 0
power_supply_technology: 3
present: True
cell_voltage: [3.9630000591278076, 3.9630000591278076, 3.9630000591278076]
location: "id0"
serial_number: ''
---
header: 
  seq: 195
  stamp: 
    secs: 1582658757
    nsecs: 698422521
  frame_id: ''
voltage: 11.9169998169
current: 1.0
charge: nan
capacity: nan
design_capacity: nan
percentage: 0.860000014305
power_supply_status: 2
power_supply_health: 0
power_supply_technology: 3
present: True
cell_voltage: [3.9609999656677246, 3.9609999656677246, 3.9609999656677246]
location: "id0"
serial_number: ''
---
header: 
  seq: 196
  stamp: 
    secs: 1582658758
    nsecs: 214084867
  frame_id: ''
voltage: 11.9119997025
current: 1.0
charge: nan
capacity: nan
design_capacity: nan
percentage: 0.860000014305
power_supply_status: 2
power_supply_health: 0
power_supply_technology: 3
present: True
cell_voltage: [3.9590001106262207, 3.9590001106262207, 3.9590001106262207]
location: "id0"
serial_number: ''
---
header: 
  seq: 197
  stamp: 
    secs: 1582658758
    nsecs: 688392749
  frame_id: ''
voltage: 11.9060001373
current: 1.0
charge: nan
capacity: nan
design_capacity: nan
percentage: 0.860000014305
power_supply_status: 2
power_supply_health: 0
power_supply_technology: 3
present: True
cell_voltage: [3.9579999446868896, 3.9579999446868896, 3.9579999446868896]
location: "id0"
serial_number: ''
---
header: 
  seq: 198
  stamp: 
    secs: 1582658759
    nsecs:  92468878
  frame_id: ''
voltage: 11.9010000229
current: 1.0
charge: nan
capacity: nan
design_capacity: nan
percentage: 0.850000023842
power_supply_status: 2
power_supply_health: 0
power_supply_technology: 3
present: True
cell_voltage: [3.9560000896453857, 3.9560000896453857, 3.9560000896453857]
location: "id0"
serial_number: ''
---
header: 
  seq: 199
  stamp: 
    secs: 1582658759
    nsecs: 499268889
  frame_id: ''
voltage: 11.8950004578
current: 1.0
charge: nan
capacity: nan
design_capacity: nan
percentage: 0.850000023842
power_supply_status: 2
power_supply_health: 0
power_supply_technology: 3
present: True
cell_voltage: [3.9539999961853027, 3.9539999961853027, 3.9539999961853027]
location: "id0"
serial_number: ''
---
header: 
  seq: 200
  stamp: 
    secs: 1582658759
    nsecs: 953308600
  frame_id: ''
voltage: 11.8900003433
current: 1.0
charge: nan
capacity: nan
design_capacity: nan
percentage: 0.850000023842
power_supply_status: 2
power_supply_health: 0
power_supply_technology: 3
present: True
cell_voltage: [3.9519999027252197, 3.9519999027252197, 3.9519999027252197]
location: "id0"
serial_number: ''
---
header: 
  seq: 201
  stamp: 
    secs: 1582658760
    nsecs: 407717963
  frame_id: ''
voltage: 11.8839998245
current: 1.0
charge: nan
capacity: nan
design_capacity: nan
percentage: 0.839999973774
power_supply_status: 2
power_supply_health: 0
power_supply_technology: 3
present: True
cell_voltage: [3.950000047683716, 3.950000047683716, 3.950000047683716]
location: "id0"
serial_number: ''
---
header: 
  seq: 202
  stamp: 
    secs: 1582658760
    nsecs: 801301208
  frame_id: ''
voltage: 11.8789997101
current: 1.0
charge: nan
capacity: nan
design_capacity: nan
percentage: 0.839999973774
power_supply_status: 2
power_supply_health: 0
power_supply_technology: 3
present: True
cell_voltage: [3.947999954223633, 3.947999954223633, 3.947999954223633]
location: "id0"
serial_number: ''
---
header: 
  seq: 203
  stamp: 
    secs: 1582658761
    nsecs: 178636820
  frame_id: ''
voltage: 11.873000145
current: 1.0
charge: nan
capacity: nan
design_capacity: nan
percentage: 0.839999973774
power_supply_status: 2
power_supply_health: 0
power_supply_technology: 3
present: True
cell_voltage: [3.947000026702881, 3.947000026702881, 3.947000026702881]
location: "id0"
serial_number: ''
---
header: 
  seq: 204
  stamp: 
    secs: 1582658761
    nsecs: 559435907
  frame_id: ''
voltage: 11.8680000305
current: 1.0
charge: nan
capacity: nan
design_capacity: nan
percentage: 0.829999983311
power_supply_status: 2
power_supply_health: 0
power_supply_technology: 3
present: True
cell_voltage: [3.944999933242798, 3.944999933242798, 3.944999933242798]
location: "id0"
serial_number: ''
---
header: 
  seq: 205
  stamp: 
    secs: 1582658762
    nsecs:  43226603
  frame_id: ''
voltage: 11.8620004654
current: 1.0
charge: nan
capacity: nan
design_capacity: nan
percentage: 0.829999983311
power_supply_status: 2
power_supply_health: 0
power_supply_technology: 3
present: True
cell_voltage: [3.943000078201294, 3.943000078201294, 3.943000078201294]
location: "id0"
serial_number: ''
---
header: 
  seq: 206
  stamp: 
    secs: 1582658762
    nsecs: 396698857
  frame_id: ''
voltage: 11.857000351
current: 1.0
charge: nan
capacity: nan
design_capacity: nan
percentage: 0.829999983311
power_supply_status: 2
power_supply_health: 0
power_supply_technology: 3
present: True
cell_voltage: [3.940999984741211, 3.940999984741211, 3.940999984741211]
location: "id0"
serial_number: ''
---
header: 
  seq: 207
  stamp: 
    secs: 1582658762
    nsecs: 804600133
  frame_id: ''
voltage: 11.8509998322
current: 1.0
charge: nan
capacity: nan
design_capacity: nan
percentage: 0.819999992847
power_supply_status: 2
power_supply_health: 0
power_supply_technology: 3
present: True
cell_voltage: [3.938999891281128, 3.938999891281128, 3.938999891281128]
location: "id0"
serial_number: ''
---
header: 
  seq: 208
  stamp: 
    secs: 1582658763
    nsecs: 250499286
  frame_id: ''
voltage: 11.8459997177
current: 1.0
charge: nan
capacity: nan
design_capacity: nan
percentage: 0.819999992847
power_supply_status: 2
power_supply_health: 0
power_supply_technology: 3
present: True
cell_voltage: [3.937000036239624, 3.937000036239624, 3.937000036239624]
location: "id0"
serial_number: ''
---
header: 
  seq: 209
  stamp: 
    secs: 1582658763
    nsecs: 728483451
  frame_id: ''
voltage: 11.8400001526
current: 1.0
charge: nan
capacity: nan
design_capacity: nan
percentage: 0.819999992847
power_supply_status: 2
power_supply_health: 0
power_supply_technology: 3
present: True
cell_voltage: [3.936000108718872, 3.936000108718872, 3.936000108718872]
location: "id0"
serial_number: ''
---
header: 
  seq: 210
  stamp: 
    secs: 1582658764
    nsecs: 138973856
  frame_id: ''
voltage: 11.8350000381
current: 1.0
charge: nan
capacity: nan
design_capacity: nan
percentage: 0.810000002384
power_supply_status: 2
power_supply_health: 0
power_supply_technology: 3
present: True
cell_voltage: [3.934000015258789, 3.934000015258789, 3.934000015258789]
location: "id0"
serial_number: ''
---
header: 
  seq: 211
  stamp: 
    secs: 1582658764
    nsecs: 564006721
  frame_id: ''
voltage: 11.829000473
current: 1.0
charge: nan
capacity: nan
design_capacity: nan
percentage: 0.810000002384
power_supply_status: 2
power_supply_health: 0
power_supply_technology: 3
present: True
cell_voltage: [3.931999921798706, 3.931999921798706, 3.931999921798706]
location: "id0"
serial_number: ''
---
header: 
  seq: 212
  stamp: 
    secs: 1582658764
    nsecs: 912336142
  frame_id: ''
voltage: 11.8240003586
current: 1.0
charge: nan
capacity: nan
design_capacity: nan
percentage: 0.810000002384
power_supply_status: 2
power_supply_health: 0
power_supply_technology: 3
present: True
cell_voltage: [3.930000066757202, 3.930000066757202, 3.930000066757202]
location: "id0"
serial_number: ''
---
header: 
  seq: 213
  stamp: 
    secs: 1582658765
    nsecs: 344734693
  frame_id: ''
voltage: 11.8179998398
current: 1.0
charge: nan
capacity: nan
design_capacity: nan
percentage: 0.800000011921
power_supply_status: 2
power_supply_health: 0
power_supply_technology: 3
present: True
cell_voltage: [3.927999973297119, 3.927999973297119, 3.927999973297119]
location: "id0"
serial_number: ''
---
header: 
  seq: 214
  stamp: 
    secs: 1582658765
    nsecs: 780413969
  frame_id: ''
voltage: 11.8129997253
current: 1.0
charge: nan
capacity: nan
design_capacity: nan
percentage: 0.800000011921
power_supply_status: 2
power_supply_health: 0
power_supply_technology: 3
present: True
cell_voltage: [3.9260001182556152, 3.9260001182556152, 3.9260001182556152]
location: "id0"
serial_number: ''
---
header: 
  seq: 215
  stamp: 
    secs: 1582658766
    nsecs: 282462526
  frame_id: ''
voltage: 11.8070001602
current: 1.0
charge: nan
capacity: nan
design_capacity: nan
percentage: 0.800000011921
power_supply_status: 2
power_supply_health: 0
power_supply_technology: 3
present: True
cell_voltage: [3.924999952316284, 3.924999952316284, 3.924999952316284]
location: "id0"
serial_number: ''
---
header: 
  seq: 216
  stamp: 
    secs: 1582658766
    nsecs: 649383801
  frame_id: ''
voltage: 11.8020000458
current: 1.0
charge: nan
capacity: nan
design_capacity: nan
percentage: 0.790000021458
power_supply_status: 2
power_supply_health: 0
power_supply_technology: 3
present: True
cell_voltage: [3.9230000972747803, 3.9230000972747803, 3.9230000972747803]
location: "id0"
serial_number: ''
---
header: 
  seq: 217
  stamp: 
    secs: 1582658767
    nsecs:  96725380
  frame_id: ''
voltage: 11.795999527
current: 1.0
charge: nan
capacity: nan
design_capacity: nan
percentage: 0.790000021458
power_supply_status: 2
power_supply_health: 0
power_supply_technology: 3
present: True
cell_voltage: [3.9210000038146973, 3.9210000038146973, 3.9210000038146973]
location: "id0"
serial_number: ''
---
header: 
  seq: 218
  stamp: 
    secs: 1582658767
    nsecs: 553256182
  frame_id: ''
voltage: 11.7910003662
current: 1.0
charge: nan
capacity: nan
design_capacity: nan
percentage: 0.790000021458
power_supply_status: 2
power_supply_health: 0
power_supply_technology: 3
present: True
cell_voltage: [3.9189999103546143, 3.9189999103546143, 3.9189999103546143]
location: "id0"
serial_number: ''
---
header: 
  seq: 219
  stamp: 
    secs: 1582658768
    nsecs:  47531728
  frame_id: ''
voltage: 11.7849998474
current: 1.0
charge: nan
capacity: nan
design_capacity: nan
percentage: 0.77999997139
power_supply_status: 2
power_supply_health: 0
power_supply_technology: 3
present: True
cell_voltage: [3.9170000553131104, 3.9170000553131104, 3.9170000553131104]
location: "id0"
serial_number: ''
---
header: 
  seq: 220
  stamp: 
    secs: 1582658768
    nsecs: 492855183
  frame_id: ''
voltage: 11.779999733
current: 1.0
charge: nan
capacity: nan
design_capacity: nan
percentage: 0.77999997139
power_supply_status: 2
power_supply_health: 0
power_supply_technology: 3
present: True
cell_voltage: [3.9149999618530273, 3.9149999618530273, 3.9149999618530273]
location: "id0"
serial_number: ''
---
header: 
  seq: 221
  stamp: 
    secs: 1582658768
    nsecs: 920935831
  frame_id: ''
voltage: 11.7740001678
current: 1.0
charge: nan
capacity: nan
design_capacity: nan
percentage: 0.77999997139
power_supply_status: 2
power_supply_health: 0
power_supply_technology: 3
present: True
cell_voltage: [3.9140000343322754, 3.9140000343322754, 3.9140000343322754]
location: "id0"
serial_number: ''
---
header: 
  seq: 222
  stamp: 
    secs: 1582658769
    nsecs: 273916533
  frame_id: ''
voltage: 11.7690000534
current: 1.0
charge: nan
capacity: nan
design_capacity: nan
percentage: 0.769999980927
power_supply_status: 2
power_supply_health: 0
power_supply_technology: 3
present: True
cell_voltage: [3.9119999408721924, 3.9119999408721924, 3.9119999408721924]
location: "id0"
serial_number: ''
---
header: 
  seq: 223
  stamp: 
    secs: 1582658769
    nsecs: 670528342
  frame_id: ''
voltage: 11.7629995346
current: 1.0
charge: nan
capacity: nan
design_capacity: nan
percentage: 0.769999980927
power_supply_status: 2
power_supply_health: 0
power_supply_technology: 3
present: True
cell_voltage: [3.9100000858306885, 3.9100000858306885, 3.9100000858306885]
location: "id0"
serial_number: ''
---
header: 
  seq: 224
  stamp: 
    secs: 1582658770
    nsecs: 186969243
  frame_id: ''
voltage: 11.7580003738
current: 1.0
charge: nan
capacity: nan
design_capacity: nan
percentage: 0.769999980927
power_supply_status: 2
power_supply_health: 0
power_supply_technology: 3
present: True
cell_voltage: [3.9079999923706055, 3.9079999923706055, 3.9079999923706055]
location: "id0"
serial_number: ''
---
header: 
  seq: 225
  stamp: 
    secs: 1582658770
    nsecs: 633084434
  frame_id: ''
voltage: 11.751999855
current: 1.0
charge: nan
capacity: nan
design_capacity: nan
percentage: 0.759999990463
power_supply_status: 2
power_supply_health: 0
power_supply_technology: 3
present: True
cell_voltage: [3.9059998989105225, 3.9059998989105225, 3.9059998989105225]
location: "id0"
serial_number: ''
---
header: 
  seq: 226
  stamp: 
    secs: 1582658771
    nsecs:  55024096
  frame_id: ''
voltage: 11.7469997406
current: 1.0
charge: nan
capacity: nan
design_capacity: nan
percentage: 0.759999990463
power_supply_status: 2
power_supply_health: 0
power_supply_technology: 3
present: True
cell_voltage: [3.9040000438690186, 3.9040000438690186, 3.9040000438690186]
location: "id0"
serial_number: ''
---
header: 
  seq: 227
  stamp: 
    secs: 1582658771
    nsecs: 519252862
  frame_id: ''
voltage: 11.7410001755
current: 1.0
charge: nan
capacity: nan
design_capacity: nan
percentage: 0.759999990463
power_supply_status: 2
power_supply_health: 0
power_supply_technology: 3
present: True
cell_voltage: [3.9030001163482666, 3.9030001163482666, 3.9030001163482666]
location: "id0"
serial_number: ''
---
header: 
  seq: 228
  stamp: 
    secs: 1582658771
    nsecs: 989068518
  frame_id: ''
voltage: 11.736000061
current: 1.0
charge: nan
capacity: nan
design_capacity: nan
percentage: 0.75
power_supply_status: 2
power_supply_health: 0
power_supply_technology: 3
present: True
cell_voltage: [3.9010000228881836, 3.9010000228881836, 3.9010000228881836]
location: "id0"
serial_number: ''
---
header: 
  seq: 229
  stamp: 
    secs: 1582658772
    nsecs: 448062364
  frame_id: ''
voltage: 11.7299995422
current: 1.0
charge: nan
capacity: nan
design_capacity: nan
percentage: 0.75
power_supply_status: 2
